,City,Lat,Lng,Date and Time,Max Temperature,Humidity,Cloudiness,Windspeed
0,Kapaa,22.08,-159.32,2020-10-20 16:55:17,73,79,46,8.55
1,Cheuskiny,22.08,-159.32,2020-10-20 16:55:17,73,79,46,8.55
2,Belmonte,-15.86,-38.88,2020-10-20 16:55:26,77,83,90,6.93
3,Port Elizabeth,-33.92,25.57,2020-10-20 16:53:30,62.6,72,10,19.46
4,Norman Wells,65.28,-126.83,2020-10-20 16:55:32,17.6,92,75,9.17
5,Bluff,-46.6,168.33,2020-10-20 16:55:33,42.01,88,92,12.77
6,Hovd,48.01,91.64,2020-10-20 16:55:34,29.12,81,71,0.54
7,Hilo,19.73,-155.09,2020-10-20 16:51:50,69.8,64,1,6.93
8,Grindavik,63.84,-22.43,2020-10-20 16:52:58,39.2,69,75,6.93
9,Westport,41.14,-73.36,2020-10-20 16:53:46,66,93,90,4.7
10,Guanica,17.97,-66.91,2020-10-20 16:55:39,88,63,69,3
11,Albany,42.6,-73.97,2020-10-20 16:55:40,62.01,75,100,1.45
12,Ushuaia,-54.8,-68.3,2020-10-20 16:51:26,44.6,56,40,23.04
13,Kaitangata,-46.28,169.85,2020-10-20 16:55:43,48,86,97,1.83
14,Jamestown,42.1,-79.24,2020-10-20 16:52:11,48.99,93,90,8.05
15,Longyearbyen,78.22,15.64,2020-10-20 16:55:45,23,79,41,3.36
16,Ulladulla,-35.35,150.47,2020-10-20 16:55:46,54,100,90,3.87
17,Ilulissat,69.22,-51.1,2020-10-20 16:55:47,39.2,80,75,12.75
18,Tigre,-34.43,-58.58,2020-10-20 16:55:49,57.99,76,90,16.11
19,Kozluk,38.19,41.49,2020-10-20 16:51:33,68,40,80,2.24
20,Cockburn Town,21.46,-71.14,2020-10-20 16:55:51,82.76,70,8,8.99
21,Namibe,-15.2,12.15,2020-10-20 16:55:39,71.6,78,90,19.46
22,Severo-Kurilsk,50.68,156.12,2020-10-20 16:55:53,40.01,71,30,24.4
23,Ejido,8.55,-71.24,2020-10-20 16:55:54,82.2,41,100,5.39
24,Port Alfred,-33.59,26.89,2020-10-20 16:55:56,61.83,68,82,16.82
25,Belushya Guba,-33.59,26.89,2020-10-20 16:55:56,61.83,68,82,16.82
26,Butaritari,3.07,172.79,2020-10-20 16:55:58,81.81,73,91,7.63
27,Warqla,3.07,172.79,2020-10-20 16:55:58,81.81,73,91,7.63
28,Thinadhoo,0.53,72.93,2020-10-20 16:56:00,83.19,77,27,11.83
29,Chuy,-33.7,-53.46,2020-10-20 16:51:09,58.35,77,100,17.67
30,Mbandaka,0.05,18.26,2020-10-20 16:56:03,77.34,79,23,1.66
31,Reconquista,-29.15,-59.65,2020-10-20 16:56:04,89.17,47,2,12.73
32,Atar,20.52,-13.05,2020-10-20 16:56:05,96.8,17,4,13.56
33,Aksarka,66.56,67.8,2020-10-20 16:56:06,18.88,98,95,2.84
34,Rikitea,-23.12,-134.97,2020-10-20 16:51:25,73.35,78,3,13.04
35,Torbay,47.67,-52.73,2020-10-20 16:56:09,62.01,67,75,16.11
36,Busselton,-33.65,115.33,2020-10-20 16:56:10,57.99,58,72,8.61
37,Nizhneyansk,-33.65,115.33,2020-10-20 16:56:10,57.99,58,72,8.61
38,Port Blair,11.67,92.75,2020-10-20 16:51:33,81.5,84,28,12.44
39,Lebu,-37.62,-73.65,2020-10-20 16:53:15,54.09,63,0,20
40,Krasnoselkup,65.7,82.47,2020-10-20 16:56:15,23.25,98,98,8.99
41,Bethel,41.37,-73.41,2020-10-20 16:56:17,64.99,88,90,4.23
42,Roma,43.21,-75.46,2020-10-20 16:51:24,53.6,93,90,9.17
43,Cidreira,-30.18,-50.21,2020-10-20 16:56:19,74.21,72,0,13.18
44,Okhotsk,59.38,143.3,2020-10-20 16:56:20,24.4,81,83,13.27
45,Hobyo,5.35,48.53,2020-10-20 16:56:21,80.46,81,7,17.52
46,Guangyuan,32.44,105.82,2020-10-20 16:56:23,59,84,91,3
47,Port Shepstone,-30.74,30.45,2020-10-20 16:56:24,68.43,64,90,17.47
48,Berbera,10.44,45.01,2020-10-20 16:56:25,86.23,50,0,2.1
49,Atuona,-9.8,-139.03,2020-10-20 16:56:26,77.23,73,9,20.22
50,Virginia Beach,36.85,-75.98,2020-10-20 16:55:52,75.2,73,75,3.74
51,Hermanus,-34.42,19.23,2020-10-20 16:54:33,60.01,71,0,1.99
52,Biltine,14.53,20.92,2020-10-20 16:56:30,91.69,11,0,8.97
53,Ribeira Grande,38.52,-28.7,2020-10-20 16:56:31,64.4,63,40,11.41
54,Ketchikan,55.34,-131.65,2020-10-20 16:56:32,42.8,100,1,3.36
55,Thompson,55.74,-97.86,2020-10-20 16:56:33,26.6,73,90,2.24
56,Esperance,-33.87,121.9,2020-10-20 16:56:35,59,100,90,10.29
57,New Norfolk,-42.78,147.06,2020-10-20 16:51:51,52,75,100,1.01
58,Mataura,-46.19,168.86,2020-10-20 16:56:37,42.01,88,96,0.96
59,Russellville,35.28,-93.13,2020-10-20 16:52:24,70,82,90,5.82
60,Airai,-8.93,125.41,2020-10-20 16:56:41,61.3,76,100,1.99
61,Grand River South East,-8.93,125.41,2020-10-20 16:56:41,61.3,76,100,1.99
62,San Patricio,28.02,-97.52,2020-10-20 16:56:44,87.01,66,75,8.05
63,Baiao,-2.79,-49.67,2020-10-20 16:56:45,97.63,37,93,5.1
64,Nizhniy Kuranakh,58.84,125.49,2020-10-20 16:56:46,24.57,97,100,2.71
65,Santa Maria,-29.68,-53.81,2020-10-20 16:53:44,86.52,48,0,9.86
66,Avarua,-21.21,-159.78,2020-10-20 16:56:49,73.4,100,24,2.24
67,Kitami,43.8,143.89,2020-10-20 16:56:50,37.18,86,0,3.47
68,Sitka,57.05,-135.33,2020-10-20 16:56:51,39.2,93,20,5.82
69,Asau,46.43,26.4,2020-10-20 16:56:19,46.4,75,0,2.15
70,Lasa,46.62,10.7,2020-10-20 16:56:53,50,80,75,5.82
71,Barawe,46.62,10.7,2020-10-20 16:56:53,50,80,75,5.82
72,Punta Arenas,-53.15,-70.92,2020-10-20 16:53:51,48.2,45,75,21.92
73,Sataua,-53.15,-70.92,2020-10-20 16:53:51,48.2,45,75,21.92
74,Usilampatti,9.97,77.8,2020-10-20 16:56:58,80.6,88,75,4.14
75,Oktyabrskoye,43.06,44.74,2020-10-20 16:56:59,53.6,76,75,2.24
76,Mahebourg,-20.41,57.7,2020-10-20 16:55:42,75.2,73,40,12.75
77,Villazon,-22.09,-65.59,2020-10-20 16:57:02,62.74,28,0,13.53
78,Taoudenni,22.68,-3.98,2020-10-20 16:57:03,93.72,12,0,11.12
79,Dicabisagan,17.08,122.42,2020-10-20 16:57:04,79.39,85,100,16.49
80,Saint-Philippe,-21.36,55.77,2020-10-20 16:57:09,73.4,78,38,5.82
81,East London,-33.02,27.91,2020-10-20 16:55:41,62.6,67,36,25.28
82,Yellowknife,62.46,-114.35,2020-10-20 16:57:12,26.01,85,75,3.36
83,Vaini,-21.2,-175.2,2020-10-20 16:55:21,69.8,77,20,11.41
84,Linhares,-19.39,-40.07,2020-10-20 16:55:55,76.41,67,100,2.21
85,Pangai,-19.8,-174.35,2020-10-20 16:57:16,73.08,70,72,19.57
86,Olafsvik,64.89,-23.71,2020-10-20 16:57:17,40.21,93,100,12.73
87,Faanui,-16.48,-151.75,2020-10-20 16:57:18,78.64,82,79,15.82
88,Grants Pass,42.44,-123.33,2020-10-20 16:57:20,51.8,76,1,1.14
89,Salamiyah,35.01,37.05,2020-10-20 16:57:21,69.12,40,0,3.98
90,Ahipara,-35.17,173.17,2020-10-20 16:57:22,56.84,81,98,4.63
91,Aguimes,27.91,-15.45,2020-10-20 16:57:23,87.8,52,20,6.93
92,Sanming,26.25,117.62,2020-10-20 16:57:24,63.9,84,66,2.55
93,Saskylakh,71.92,114.08,2020-10-20 16:57:25,21.27,97,87,6.4
94,Los Llanos De Aridane,28.66,-17.92,2020-10-20 16:56:03,80.6,61,40,16.11
95,Port Hardy,50.7,-127.42,2020-10-20 16:57:28,46.4,93,75,4.7
96,Amderma,50.7,-127.42,2020-10-20 16:57:28,46.4,93,75,4.7
97,Hofn,64.25,-15.21,2020-10-20 16:57:31,37.69,72,3,1.61
98,Pandan,14.05,124.17,2020-10-20 16:57:32,80.42,81,100,13.51
99,Udimskiy,61.14,45.91,2020-10-20 16:57:33,31.33,99,100,7.4
100,Quzhou,28.96,118.87,2020-10-20 16:57:34,59.99,83,52,1.32
101,Hithadhoo,-0.6,73.08,2020-10-20 16:57:35,83.14,76,77,10.85
102,Segou,13.43,-6.22,2020-10-20 16:57:37,98.13,16,0,6.67
103,Taolanaro,13.43,-6.22,2020-10-20 16:57:37,98.13,16,0,6.67
104,Itoman,26.12,127.67,2020-10-20 16:53:33,80.6,74,75,13.87
105,Hobart,-42.88,147.33,2020-10-20 16:57:27,53.6,81,90,5.82
106,Muros,42.78,-9.06,2020-10-20 16:57:12,62.01,84,100,9.78
107,Rheinau,48.87,8.2,2020-10-20 16:57:43,57,87,100,2.24
108,Bredasdorp,-34.53,20.04,2020-10-20 16:56:58,62.6,55,0,13.87
109,Ostrovnoy,68.05,39.51,2020-10-20 16:57:46,37.87,78,100,16.06
110,Ozgon,68.05,39.51,2020-10-20 16:57:46,37.87,78,100,16.06
111,Qaanaaq,77.48,-69.36,2020-10-20 16:55:24,22.55,84,0,8.28
112,Yar-Sale,66.83,70.83,2020-10-20 16:56:15,22.53,98,100,2.13
113,Praia Da Vitoria,38.73,-27.07,2020-10-20 16:57:51,64.4,63,40,26.22
114,Meulaboh,4.14,96.13,2020-10-20 16:57:52,78.17,85,42,4
115,Portland,45.52,-122.68,2020-10-20 16:55:22,55.99,81,75,2.46
116,Jelgava,56.65,23.71,2020-10-20 16:57:54,41,80,100,3.36
117,Vostok,46.49,135.88,2020-10-20 16:57:55,32.11,92,23,5.06
118,Takoradi,4.88,-1.76,2020-10-20 16:57:57,79.34,85,79,11.52
119,Rocha,-34.48,-54.33,2020-10-20 16:55:35,49.6,95,100,12.48
120,Bolungarvik,-34.48,-54.33,2020-10-20 16:55:35,49.6,95,100,12.48
121,Arraial Do Cabo,-22.97,-42.03,2020-10-20 16:55:41,82.4,65,6,23.04
122,Nadvoitsy,63.87,34.32,2020-10-20 16:58:05,30.34,98,94,11.21
123,Shenjiamen,29.96,122.3,2020-10-20 16:58:07,67.48,82,26,7.45
124,Mar Del Plata,-38,-57.56,2020-10-20 16:57:50,59,38,98,12.75
125,Talnakh,69.49,88.4,2020-10-20 16:58:09,10.4,85,75,4.47
126,Monroe,43.15,-77.68,2020-10-20 16:58:12,48.99,93,90,5.82
127,Aykhal,66,111.5,2020-10-20 16:58:15,8.6,92,90,4.47
128,Sikasso,10.92,-7,2020-10-20 16:58:16,88.59,52,41,0.56
129,Mantua,45.17,10.78,2020-10-20 16:58:17,59,86,64,1.01
130,Lavrentiya,65.58,-171,2020-10-20 16:57:19,35.6,90,39,10.63
131,Barentsburg,65.58,-171,2020-10-20 16:57:19,35.6,90,39,10.63
132,Khatanga,71.97,102.5,2020-10-20 16:58:21,7.47,95,85,8.14
133,Tiksi,71.69,128.87,2020-10-20 16:58:22,12.11,93,100,15.88
134,Okha,53.57,142.95,2020-10-20 16:58:23,32.45,91,31,10.47
135,College,64.86,-147.8,2020-10-20 16:58:25,16,85,75,4.7
136,Souillac,-20.52,57.52,2020-10-20 16:58:20,75.2,73,40,12.75
137,Kodinar,20.79,70.7,2020-10-20 16:58:30,82.38,81,9,8.95
138,Iqaluit,63.75,-68.51,2020-10-20 16:58:31,30.2,74,90,2.24
139,Pangnirtung,66.15,-65.71,2020-10-20 16:58:32,28.4,79,90,9.17
140,Bukachacha,52.98,116.92,2020-10-20 16:58:33,24.01,90,96,7.07
141,Praia,14.92,-23.51,2020-10-20 16:56:52,91.4,52,99,12.75
142,Codrington,-38.27,141.97,2020-10-20 16:58:35,46.47,89,100,3.33
143,Mojokerto,-7.47,112.43,2020-10-20 16:58:37,79.12,76,63,1.79
144,Amuntai,-2.42,115.25,2020-10-20 16:58:39,74.17,80,64,1.9
145,Victoria,22.29,114.16,2020-10-20 16:55:23,73.99,69,23,1.99
146,Nishihara,26.18,127.76,2020-10-20 16:58:42,80.6,74,75,13.87
147,Cabo San Lucas,22.89,-109.91,2020-10-20 16:54:34,91,48,5,3.36
148,Makakilo City,21.35,-158.09,2020-10-20 16:57:09,80.6,74,90,12.75
149,Fairbanks,64.84,-147.72,2020-10-20 16:57:09,16,85,90,1.12
150,Manzanillo,20.34,-77.12,2020-10-20 16:58:52,85.46,66,66,4.52
151,Jerome,42.72,-114.52,2020-10-20 16:58:53,53.6,57,1,14.99
152,Keflavik,64,-22.56,2020-10-20 16:58:54,39.2,69,75,6.93
153,Kopargaon,19.88,74.48,2020-10-20 16:58:55,78.08,77,56,3.27
154,Narsaq,60.92,-46.05,2020-10-20 16:57:13,35.6,93,75,1.12
155,Castro,-24.79,-50.01,2020-10-20 16:58:58,81.16,48,46,0.76
156,Sandomierz,50.68,21.75,2020-10-20 16:55:59,53.01,77,58,1.99
157,Kodiak,57.79,-152.41,2020-10-20 16:56:14,42.8,60,20,5.82
158,Dikson,73.51,80.55,2020-10-20 16:55:38,21.88,95,94,9.33
159,Cape Town,-33.93,18.42,2020-10-20 16:58:00,62.6,51,2,17.22
160,Hasaki,35.73,140.83,2020-10-20 16:59:04,53.6,93,20,9.17
161,Forestville,38.85,-76.88,2020-10-20 16:59:05,72,82,20,5.73
162,Samalaeulu,38.85,-76.88,2020-10-20 16:59:05,72,82,20,5.73
163,Bengkulu,-3.8,102.27,2020-10-20 16:59:07,76.77,83,96,4.36
164,Majene,-3.54,118.97,2020-10-20 16:59:08,80.49,77,100,9.71
165,Geraldton,-28.77,114.6,2020-10-20 16:59:10,64.4,77,90,14.99
166,Illoqqortoormiut,-28.77,114.6,2020-10-20 16:59:10,64.4,77,90,14.99
167,Cambrils,41.07,1.05,2020-10-20 16:59:12,66.99,82,75,9.17
168,Clinton,42.59,-82.92,2020-10-20 16:58:27,53.01,71,75,6.93
169,Tuktoyaktuk,69.45,-133.04,2020-10-20 16:55:35,23,92,90,18.34
170,Umm Kaddadah,13.6,26.69,2020-10-20 16:59:15,92.7,10,0,15.41
171,Ancud,-41.87,-73.82,2020-10-20 16:59:17,51.8,43,0,8.05
172,Barrow,71.29,-156.79,2020-10-20 16:56:53,28.4,86,90,5.82
173,Bastrop,32.76,-91.87,2020-10-20 16:59:19,81,61,40,5.82
174,Fairview,40.81,-74,2020-10-20 16:59:20,69.01,93,90,4.7
175,Lakhdenpokhya,61.52,30.2,2020-10-20 16:59:21,32,89,52,6.85
176,Twante,16.72,95.93,2020-10-20 16:59:23,77,100,90,1.12
177,Necochea,-38.55,-58.74,2020-10-20 16:57:05,64.99,44,62,5.01
178,Porto Novo,6.5,2.6,2020-10-20 16:59:25,84.2,79,20,14.99
179,Lorengau,-2.02,147.27,2020-10-20 16:58:06,80.96,70,91,3.47
180,Clyde River,70.47,-68.59,2020-10-20 16:56:14,32,88,1,26.4
181,Nikolskoye,59.7,30.79,2020-10-20 16:59:28,37,88,75,8.95
182,Burkhala,59.7,30.79,2020-10-20 16:59:28,37,88,75,8.95
183,Salinas,36.68,-121.66,2020-10-20 16:55:29,55.4,93,40,6.93
184,Georgetown,5.41,100.34,2020-10-20 16:56:13,82.4,88,40,3.36
185,Chokurdakh,70.63,147.92,2020-10-20 16:59:33,13.77,97,91,2.01
186,Ahuimanu,21.44,-157.84,2020-10-20 16:59:34,80.6,94,40,3.36
187,Padang,-0.95,100.35,2020-10-20 16:59:36,79.57,75,69,4.32
188,Sao Filipe,14.9,-24.5,2020-10-20 16:57:08,86.67,54,85,7.65
189,Novorudnyy,51.5,58.19,2020-10-20 16:59:38,51.8,62,94,13.42
190,Ponta Do Sol,32.67,-17.1,2020-10-20 16:58:07,75.2,47,20,12.75
191,Batie,9.88,-2.92,2020-10-20 16:59:41,85.75,58,65,4.81
192,Sioux Lookout,50.1,-91.92,2020-10-20 16:59:42,32,75,75,3.36
193,Tasiilaq,65.61,-37.64,2020-10-20 16:57:34,35.6,69,75,4.7
194,Saint George,37.1,-113.58,2020-10-20 16:58:21,59,21,1,3.36
195,Mackay,-21.15,149.2,2020-10-20 16:59:46,73.4,83,40,6.93
196,Lakshettipet,18.87,79.22,2020-10-20 16:59:47,78.58,84,100,0.96
197,Kamenskoye,18.87,79.22,2020-10-20 16:59:47,78.58,84,100,0.96
198,Upernavik,72.79,-56.15,2020-10-20 16:59:52,33.31,87,100,6.78
199,Tual,-5.67,132.75,2020-10-20 16:59:44,81.64,78,100,10.29
200,Jiaocheng,24.68,116.14,2020-10-20 16:59:55,61.77,85,27,3.62
201,Soma,39.19,27.61,2020-10-20 16:59:03,64.4,77,40,16.11
202,Custoias,41.11,-7.32,2020-10-20 16:59:57,53.96,92,100,5.39
203,Vila Velha,-20.33,-40.29,2020-10-20 16:56:37,77,88,90,4.7
204,Leningradskiy,69.38,178.42,2020-10-20 16:56:00,32.25,91,86,10.38
205,Buenos Aires,-34.61,-58.38,2020-10-20 16:58:08,60.01,76,90,19.46
206,Deputatskiy,69.3,139.9,2020-10-20 17:00:02,8.73,96,100,2.21
207,Shush,32.19,48.24,2020-10-20 17:00:04,74.98,17,0,6.87
208,Huarmey,-10.07,-78.15,2020-10-20 17:00:06,69.69,64,17,9.89
209,Lompoc,34.64,-120.46,2020-10-20 16:56:32,55.4,93,90,4.7
210,Mys Shmidta,34.64,-120.46,2020-10-20 16:56:32,55.4,93,90,4.7
211,Jacqueville,5.21,-4.41,2020-10-20 17:00:10,80.6,83,40,12.75
212,Falam,22.92,93.68,2020-10-20 17:00:12,58.48,100,96,1.12
213,Bentiu,9.23,29.83,2020-10-20 17:00:13,82.33,57,71,3.02
214,Tahta,26.77,31.5,2020-10-20 17:00:14,93.2,18,0,8.05
215,Najran,17.49,44.13,2020-10-20 17:00:16,75.2,22,27,4.7
216,Arroio Grande,-32.24,-53.09,2020-10-20 17:00:17,65.07,69,100,17.38
217,Solovetskiy,-32.24,-53.09,2020-10-20 17:00:17,65.07,69,100,17.38
218,Lolua,-32.24,-53.09,2020-10-20 17:00:17,65.07,69,100,17.38
219,Marquard,-28.66,27.43,2020-10-20 17:00:20,72.54,20,8,11.83
220,Asyut,27.18,31.18,2020-10-20 17:00:22,93.2,24,0,8.05
221,Saleaula,27.18,31.18,2020-10-20 17:00:22,93.2,24,0,8.05
222,Carutapera,-1.2,-46.02,2020-10-20 17:00:24,88.39,56,100,12.57
223,Lulea,65.58,22.15,2020-10-20 17:00:26,23,100,67,2.24
224,Selma,36.57,-119.61,2020-10-20 17:00:27,70,48,20,4.7
225,Paracuru,-3.41,-39.03,2020-10-20 17:00:29,81,70,42,25.01
226,Benghazi,32.12,20.07,2020-10-20 17:00:30,71.01,71,0,17.36
227,Maues,-3.38,-57.72,2020-10-20 17:00:32,101.16,29,90,5.64
228,Pathein,16.78,94.73,2020-10-20 17:00:33,74.8,96,96,7.96
229,Passo De Camaragibe,-9.24,-35.49,2020-10-20 17:00:34,82.4,58,75,13.87
230,Half Moon Bay,37.46,-122.43,2020-10-20 16:58:53,69.01,82,5,3.36
231,Bilibino,68.05,166.44,2020-10-20 17:00:37,20.79,95,100,1.63
232,Puerto Ayora,-0.74,-90.35,2020-10-20 17:00:38,77,73,75,9.17
233,Ust-Tsilma,65.44,52.15,2020-10-20 17:00:39,26.91,98,99,4.07
234,Fare,-16.7,-151.02,2020-10-20 16:59:50,78.96,81,48,17.83
235,Srednekolymsk,67.45,153.68,2020-10-20 17:00:42,17.69,97,94,3.47
236,Gazanjyk,39.24,55.52,2020-10-20 16:57:27,64.15,72,0,10
237,Chicama,-7.84,-79.15,2020-10-20 17:00:44,64.4,82,20,11.41
238,Havre-Saint-Pierre,50.23,-63.6,2020-10-20 16:59:55,42.8,100,90,11.41
239,Vaitupu,50.23,-63.6,2020-10-20 16:59:55,42.8,100,90,11.41
240,Saldanha,-33.01,17.94,2020-10-20 16:59:46,64.4,52,0,17.22
241,Craig,40.52,-107.55,2020-10-20 16:56:48,46.4,45,1,3.36
242,Pouembout,-21.13,164.9,2020-10-20 17:00:50,67.91,81,2,2.59
243,Morondava,-20.28,44.28,2020-10-20 16:59:52,79.11,68,0,12.68
244,Paita,-5.09,-81.11,2020-10-20 17:00:53,75.2,69,0,14.99
245,Luang Prabang,19.89,102.13,2020-10-20 17:00:54,68.92,83,74,1.77
246,Timizart,36.8,4.27,2020-10-20 17:00:55,70.93,36,0,5.88
247,Fort Nelson,58.81,-122.7,2020-10-20 17:00:03,14,85,90,3.36
248,Tazmalt,36.39,4.4,2020-10-20 17:00:58,75.2,53,0,3.36
249,Cap Malheureux,-19.98,57.61,2020-10-20 17:00:59,75.99,69,1,5.01
250,Tilichiki,60.47,166.1,2020-10-20 17:00:25,37.13,100,100,7.96
251,Sibiti,-3.68,13.35,2020-10-20 17:01:03,74.34,91,95,4.32
252,Demba,-5.51,22.27,2020-10-20 17:01:04,74.95,79,32,1.72
253,Palana,59.12,159.97,2020-10-20 17:01:05,32.41,100,100,2.84
254,Hanzhong,33.07,107.03,2020-10-20 17:01:06,56.41,59,93,1.03
255,San Carlos De Bariloche,-41.15,-71.31,2020-10-20 17:00:26,57.56,37,38,2.73
256,Boralday,43.36,76.86,2020-10-20 17:01:09,48.2,39,0,4.47
257,Klaksvik,62.23,-6.59,2020-10-20 16:59:59,41,75,45,10.29
258,Galesong,-5.32,119.37,2020-10-20 17:01:11,75.2,94,20,1.12
259,Samarai,-10.62,150.67,2020-10-20 17:00:21,78.58,86,55,8.34
260,Kieta,-6.22,155.63,2020-10-20 17:00:40,78.69,80,56,3.67
261,Bakchar,57.02,82.07,2020-10-20 17:01:15,37.18,96,81,4.38
262,Villanueva De Cordoba,38.32,-4.63,2020-10-20 17:01:16,77,33,20,18.34
263,Tambopata,-12.73,-69.18,2020-10-20 17:01:17,82.4,78,75,6.93
264,Batagay,67.63,134.63,2020-10-20 17:01:18,9.14,94,100,3.8
265,Kuytun,54.34,101.5,2020-10-20 17:01:20,28.31,98,100,8.66
266,Daru,-9.08,143.21,2020-10-20 17:01:21,78.89,82,100,11.63
267,Provideniya,64.38,-173.3,2020-10-20 16:59:59,38.79,95,85,10.54
268,Attawapiskat,64.38,-173.3,2020-10-20 16:59:59,38.79,95,85,10.54
269,Tautira,-17.73,-149.15,2020-10-20 16:59:48,78.8,65,20,6.93
270,Moranbah,-22,148.05,2020-10-20 17:01:26,68.13,78,0,3.58
271,Zholymbet,51.74,71.71,2020-10-20 17:01:27,48.09,55,0,9.24
272,Korla,41.76,86.15,2020-10-20 17:01:28,52,68,0,5.01
273,Komsomolskiy,40.43,71.72,2020-10-20 17:01:29,57.2,54,0,6.93
274,Bontang,0.13,117.5,2020-10-20 17:01:30,78.58,78,100,6.2
275,Bolsheustikinskoye,0.13,117.5,2020-10-20 17:01:30,78.58,78,100,6.2
276,Mahadday Weyne,0.13,117.5,2020-10-20 17:01:30,78.58,78,100,6.2
277,Cherskiy,68.75,161.3,2020-10-20 17:00:18,18.63,95,70,4.52
278,Yumen,40.28,97.2,2020-10-20 17:01:35,47.53,43,0,9.6
279,Kyra,49.58,111.98,2020-10-20 17:01:36,22.15,83,29,10.87
280,Matehuala,23.65,-100.65,2020-10-20 17:01:39,72.25,44,26,7.58
281,Luderitz,-26.65,15.16,2020-10-20 16:57:53,74.52,30,0,33.82
282,Kloulklubed,7.04,134.26,2020-10-20 17:00:43,77,83,90,8.52
283,Beringovskiy,63.05,179.32,2020-10-20 16:57:48,41.22,88,99,13.89
284,Puerto Escondido,15.85,-97.07,2020-10-20 16:57:10,85.95,61,100,4.52
285,Faya,18.39,42.45,2020-10-20 16:59:52,68,10,0,11.41
286,Cam Ranh,11.92,109.16,2020-10-20 17:01:46,82.4,83,40,2.24
287,Santa Rosa,14.31,121.11,2020-10-20 17:01:47,78.8,88,90,9.17
288,Yulara,-25.24,130.99,2020-10-20 17:01:48,71.6,56,0,8.05
289,Claudio,-20.44,-44.77,2020-10-20 17:01:50,66.9,87,100,8.3
290,Chitral,35.85,71.79,2020-10-20 17:00:27,60.87,31,0,0.69
291,Laon,49.57,3.67,2020-10-20 17:01:54,57.2,87,90,10.29
292,Dondo,-19.61,34.74,2020-10-20 17:01:06,77.04,78,0,9.82
293,Smithers,54.78,-127.17,2020-10-20 17:01:57,28.4,100,75,4.7
294,X-Can,54.78,-127.17,2020-10-20 17:01:57,28.4,100,75,4.7
295,Tawkar,54.78,-127.17,2020-10-20 17:01:57,28.4,100,75,4.7
296,Marawi,8,124.29,2020-10-20 17:00:32,75.99,95,100,4
297,Zaoyang,32.13,112.75,2020-10-20 17:02:07,55.71,71,74,3.91
298,Tawang,27.58,91.87,2020-10-20 17:02:08,45.95,71,19,4.12
299,Inhambane,-23.86,35.38,2020-10-20 17:00:46,75.72,79,0,15.08
300,Rabat,33.99,-6.84,2020-10-20 17:01:28,75.2,60,75,13.87
301,Klyuchi,52.27,79.17,2020-10-20 17:02:12,45.45,57,47,8.77
302,Kinston,35.26,-77.58,2020-10-20 17:02:13,79,78,1,4.7
303,Pyu,18.48,96.43,2020-10-20 17:02:14,73.15,92,100,1.16
304,Rio Gallegos,-51.62,-69.22,2020-10-20 17:01:26,51.8,34,75,16.11
305,Carnarvon,-24.87,113.63,2020-10-20 16:59:54,68,72,0,17.22
306,Atambua,-9.11,124.89,2020-10-20 17:02:18,74.28,75,100,1.43
307,Lamar,33.67,-95.58,2020-10-20 17:02:19,81,74,20,12.75
308,Dunedin,-45.87,170.5,2020-10-20 16:57:06,48,86,97,3.44
309,Port-Gentil,-0.72,8.78,2020-10-20 17:00:17,82.4,78,40,14.99
310,Vestmannaeyjar,63.44,-20.27,2020-10-20 16:59:45,37.4,74,26,6.93
311,Barcelos,41.54,-8.62,2020-10-20 16:55:27,59,100,20,4.7
312,Buckeye,33.37,-112.58,2020-10-20 17:02:25,82.99,29,1,5.93
313,Ballina,-28.87,153.57,2020-10-20 17:02:26,57.2,87,40,2.24
314,Nioro,13.35,-15.75,2020-10-20 17:02:27,96.66,34,59,3.31
315,Ordzhonikidze,52.44,61.74,2020-10-20 17:02:29,53.65,41,100,7.43
316,Fez,34.04,-5,2020-10-20 17:02:30,87.8,15,75,2.24
317,Noumea,-22.28,166.46,2020-10-20 17:02:28,69.8,77,20,3.36
318,Santiago De Cuba,20.02,-75.82,2020-10-20 17:00:08,86,62,75,4.7
319,Chulym,55.1,80.96,2020-10-20 17:02:33,40.68,90,67,7.52
320,Xining,36.62,101.77,2020-10-20 17:00:29,38.59,64,0,0.27
321,Bemidji,47.47,-94.88,2020-10-20 17:02:39,33.01,97,90,10.29
322,Mildura,-34.2,142.15,2020-10-20 17:02:40,57.2,67,46,6.02
323,Araouane,18.9,-3.53,2020-10-20 17:02:41,95.25,10,0,9.48
324,Reporoa,-38.43,176.35,2020-10-20 17:00:53,55,98,100,1.01
325,Sola,-13.88,167.55,2020-10-20 16:59:27,80.46,78,100,16.64
326,Bubaque,11.28,-15.83,2020-10-20 17:00:30,84.25,75,46,9.04
327,Roald,62.58,6.13,2020-10-20 17:02:48,41,86,75,9.17
328,Awjilah,29.11,21.29,2020-10-20 17:02:50,75.54,48,0,5.06
329,Labutta,29.11,21.29,2020-10-20 17:02:50,75.54,48,0,5.06
330,Lahaina,20.88,-156.68,2020-10-20 17:01:04,72,77,20,4.7
331,Husavik,66.04,-17.34,2020-10-20 17:01:12,37.4,59,57,3.36
332,Filadelfia,39.95,-75.16,2020-10-20 16:58:37,69.01,82,90,5.82
333,Namuac,18.61,121.17,2020-10-20 17:02:56,80.56,88,100,24.63
334,Alotau,18.61,121.17,2020-10-20 17:02:56,80.56,88,100,24.63
335,Horsham,51.06,-0.33,2020-10-20 17:02:58,60.8,82,20,6.93
336,Ostersund,63.18,14.64,2020-10-20 17:00:20,30.2,100,90,12.75
337,Pak Phanang,8.35,100.2,2020-10-20 17:03:01,80.8,80,53,3.71
338,Makungu,-8.73,35.28,2020-10-20 17:03:03,69.21,62,17,5.77
339,Zhanaozen,43.3,52.8,2020-10-20 17:03:06,50.79,73,9,14.85
340,Shushenskoye,53.33,91.94,2020-10-20 17:03:08,42.8,60,92,4.47
341,Antsohihy,-14.88,47.99,2020-10-20 17:01:11,82,53,42,4.72
342,Mount Isa,-20.73,139.5,2020-10-20 17:03:12,78.8,26,40,6.93
343,San Cristobal,7.77,-72.22,2020-10-20 17:03:13,89.6,49,40,6.93
344,Tsihombe,7.77,-72.22,2020-10-20 17:03:13,89.6,49,40,6.93
345,Tolstoy-Yurt,43.44,45.77,2020-10-20 17:03:19,57.2,62,100,4.47
346,Puerto Guzman,0.97,-76.59,2020-10-20 17:03:20,86.97,58,53,4.45
347,Mount Gambier,-37.83,140.77,2020-10-20 17:03:21,44.6,93,90,4.7
348,Tretten,61.31,10.3,2020-10-20 17:03:23,30,94,100,3
349,Grand Gaube,-20.01,57.66,2020-10-20 17:03:24,75.99,69,2,5.01
350,Kavieng,-2.57,150.8,2020-10-20 16:56:55,81,79,77,10.16
351,Sept-Iles,50.2,-66.38,2020-10-20 17:01:35,43,100,90,10.29
352,Lodja,-3.48,23.43,2020-10-20 17:03:27,73.06,90,72,3.2
353,Vanimo,-2.67,141.3,2020-10-20 17:03:29,78.58,79,100,1.39
354,Phan Rang,-2.67,141.3,2020-10-20 17:03:29,78.58,79,100,1.39
355,Pisco,-13.7,-76.22,2020-10-20 17:00:22,66.2,72,20,10.29
356,Paramaribo,5.87,-55.17,2020-10-20 17:03:32,91.99,58,89,4
357,Ayan,56.45,138.17,2020-10-20 17:00:23,33.15,77,81,1.43
358,Dali,25.7,100.18,2020-10-20 17:03:22,58.32,89,98,2.57
359,Bandar-E Torkaman,25.7,100.18,2020-10-20 17:03:22,58.32,89,98,2.57
360,Kysyl-Syr,63.9,122.76,2020-10-20 17:03:37,18.64,97,98,4.23
361,Santo Domingo,18.5,-69.99,2020-10-20 17:02:30,90,70,40,5.26
362,Snasa,64.25,12.38,2020-10-20 17:03:40,33.8,80,20,19.46
363,Vagay,57.94,69.02,2020-10-20 17:03:41,44.74,92,100,7.92
364,Ciumeghiu,46.73,21.58,2020-10-20 17:03:42,50,66,17,4.7
365,Nuuk,64.18,-51.72,2020-10-20 16:59:13,35.6,100,90,13.87
366,Orotukan,62.27,151.7,2020-10-20 17:03:45,11.39,91,49,3.89
367,Orapa,-21.28,25.37,2020-10-20 17:03:46,90.39,11,2,6.24
368,Ixtapa,20.7,-105.2,2020-10-20 16:56:16,88,66,5,2.33
369,Bargal,20.7,-105.2,2020-10-20 16:56:16,88,66,5,2.33
370,Vaitape,-16.52,-151.75,2020-10-20 16:59:47,79.48,81,80,15.7
371,Inuvik,68.35,-133.72,2020-10-20 17:03:51,23,92,90,11.41
372,Sovetskiy,61.36,63.58,2020-10-20 17:02:45,32.9,96,100,6.46
373,Aswan,24.09,32.91,2020-10-20 17:03:53,88.93,13,0,7.83
374,Aripuana,-9.17,-60.63,2020-10-20 17:03:54,96.69,35,60,4
375,Gawler,-34.6,138.73,2020-10-20 17:03:58,60.01,71,92,8.99
376,Lagoa,39.05,-27.98,2020-10-20 16:59:51,63.46,67,13,28.05
377,Manta,-0.95,-80.73,2020-10-20 16:59:20,78.21,68,78,12.12
378,Richards Bay,-28.78,32.04,2020-10-20 16:59:47,68.63,76,93,13.44
379,Inirida,3.87,-67.92,2020-10-20 17:02:14,89.82,63,69,3.74
380,Parksville,49.32,-124.32,2020-10-20 17:00:02,48.99,89,100,1.86
381,Barentu,15.11,37.59,2020-10-20 17:04:05,81.19,24,0,11.12
382,Copiapo,-27.37,-70.33,2020-10-20 16:59:27,60.8,72,40,13.87
383,Coihaique,-45.58,-72.07,2020-10-20 17:03:12,50,57,20,9.17
384,Bambous Virieux,-20.34,57.76,2020-10-20 17:04:08,75.99,73,40,12.75
385,Haibowan,-20.34,57.76,2020-10-20 17:04:08,75.99,73,40,12.75
386,Tam Ky,15.57,108.48,2020-10-20 17:04:11,80.6,83,75,9.17
387,Birin,26.89,88.07,2020-10-20 17:04:12,58.86,90,0,3.8
388,Port Macquarie,-31.43,152.92,2020-10-20 17:04:14,55,99,22,3.27
389,Saint-Michel-Des-Saints,46.68,-73.92,2020-10-20 17:04:15,39.83,88,100,9.22
390,Tarudant,46.68,-73.92,2020-10-20 17:04:15,39.83,88,100,9.22
391,Zion,42.45,-87.83,2020-10-20 17:04:17,46.4,70,90,6.93
392,Oum Hadjer,13.3,19.7,2020-10-20 17:04:19,92.48,12,6,7.58
393,Vidim,56.41,103.11,2020-10-20 17:04:20,27.52,96,100,5.95
394,Dhidhdhoo,6.88,73.1,2020-10-20 17:04:21,82.27,80,78,11.5
395,Beloha,-25.17,45.05,2020-10-20 17:04:25,72.7,61,0,5.61
396,Port Moresby,-9.44,147.18,2020-10-20 17:04:27,75.65,91,60,8.88
397,Tumannyy,-9.44,147.18,2020-10-20 17:04:27,75.65,91,60,8.88
398,Lensk,60.73,114.93,2020-10-20 17:03:04,24.3,96,98,6.06
399,Raudeberg,61.99,5.14,2020-10-20 17:04:30,44.6,87,75,21.92
400,Bonthe,7.53,-12.51,2020-10-20 16:59:57,82.47,74,83,11.05
401,Bacong,9.25,123.3,2020-10-20 17:04:32,78.33,86,100,8.12
402,Deer Lake,49.17,-57.43,2020-10-20 17:04:35,57.2,93,90,2.24
403,Alofi,-19.06,-169.92,2020-10-20 16:57:36,71.6,94,76,10.29
404,Marcona,-19.06,-169.92,2020-10-20 16:57:36,71.6,94,76,10.29
405,Dianopolis,-19.06,-169.92,2020-10-20 16:57:36,71.6,94,76,10.29
406,Gweru,-19.45,29.82,2020-10-20 17:04:43,76.78,17,0,5.1
407,Emerald,-23.53,148.17,2020-10-20 16:56:30,71.6,73,75,11.41
408,Ayna,-12.65,-73.92,2020-10-20 17:04:45,71.6,26,20,6.93
409,Kautokeino,69.01,23.04,2020-10-20 16:59:47,27.79,96,92,2.75
410,Mahendragarh,28.28,76.15,2020-10-20 17:04:47,77.94,17,0,4.16
411,Shangqiu,34.45,115.65,2020-10-20 17:04:49,63,62,82,8.63
412,Haines Junction,60.75,-137.51,2020-10-20 17:04:51,24.82,90,100,3.13
413,Buchanan,5.88,-10.05,2020-10-20 17:02:51,86,74,75,5.82
414,Hamilton,39.18,-84.53,2020-10-20 16:56:27,52,93,90,6.93
415,Syracuse,37.09,15.28,2020-10-20 17:03:20,66.2,77,20,3.36
416,Nikki,9.94,3.21,2020-10-20 17:04:55,83.17,56,10,4.03
417,Sabha,27.04,14.43,2020-10-20 16:57:12,78.1,35,80,10.69
418,Cayenne,4.93,-52.33,2020-10-20 16:59:10,91.4,55,40,10.29
419,Northam,51.03,-4.22,2020-10-20 17:02:47,60.01,87,37,1.99
420,Southbridge,42.08,-72.03,2020-10-20 17:05:00,66,82,89,1.99
421,Hailar,49.2,119.7,2020-10-20 17:05:02,35.33,86,53,6.42
422,Batagay-Alyta,67.8,130.41,2020-10-20 17:05:03,10.8,91,92,1.52
423,Fort Walton Beach,30.41,-86.62,2020-10-20 17:01:11,82.4,69,1,6.93
424,Vostochnyy,55.82,37.87,2020-10-20 17:05:05,37.4,80,75,13.42
425,Manati,18.43,-66.49,2020-10-20 17:05:07,90,70,40,6.93
426,Caravelas,-17.71,-39.25,2020-10-20 17:02:24,80.42,68,99,9.01
427,Constitucion,-35.33,-72.42,2020-10-20 16:59:08,62.76,50,0,17.78
428,Manggar,-2.88,108.27,2020-10-20 17:05:10,80.85,77,89,2.17
429,Telhara,21.03,76.84,2020-10-20 17:05:11,78.93,74,9,3.42
430,Melioratorov,57.21,65.61,2020-10-20 17:05:13,42.8,93,75,11.18
431,Macaboboni,57.21,65.61,2020-10-20 17:05:13,42.8,93,75,11.18
432,Berlevag,70.86,29.09,2020-10-20 17:00:27,33.8,77,75,2.24
433,Saint Anthony,45.02,-93.22,2020-10-20 17:05:16,33.01,97,90,8.05
434,Bathsheba,13.22,-59.52,2020-10-20 17:01:06,87.8,70,75,11.41
435,Coquimbo,-29.95,-71.34,2020-10-20 16:57:32,62.6,63,0,16.11
436,Nyurba,63.28,118.33,2020-10-20 17:05:23,16.34,96,49,4.59
437,Umm Lajj,25.02,37.27,2020-10-20 17:01:27,81.3,60,0,2.08
438,Honiara,-9.43,159.95,2020-10-20 17:00:28,75.2,88,40,2.24
439,Bosaso,11.28,49.18,2020-10-20 16:57:05,80.67,57,0,2.19
440,Timbiqui,2.77,-77.67,2020-10-20 17:05:27,81.37,81,52,7
441,Kahului,20.89,-156.47,2020-10-20 17:00:03,71.01,77,20,4.7
442,Mehamn,71.04,27.85,2020-10-20 17:03:04,33.8,81,75,4.7
443,Van,38.49,43.38,2020-10-20 17:05:32,53.6,50,40,2.24
444,Gusau,12.16,6.66,2020-10-20 17:05:33,88.34,24,2,6.17
445,Aras,42.56,-2.36,2020-10-20 17:03:05,62.6,82,40,17.22
446,One Hundred Mile House,42.56,-2.36,2020-10-20 17:03:05,62.6,82,40,17.22
447,Fukue,32.69,128.84,2020-10-20 16:58:36,70.59,56,9,9.8
448,Oktyabrsk,49.47,57.42,2020-10-20 17:05:37,45.46,80,36,16.49
449,Xinzhou,38.41,112.73,2020-10-20 17:05:39,45.88,41,40,13.33
450,Buarcos,40.17,-8.88,2020-10-20 17:05:40,61,93,75,4.7
451,Guerrero Negro,27.98,-114.06,2020-10-20 17:05:41,77.13,62,0,6.71
452,Margate,51.38,1.39,2020-10-20 16:59:45,60.01,82,100,5.01
453,Alice Springs,-23.7,133.88,2020-10-20 17:03:22,69.8,77,33,8.05
454,Marsh Harbour,26.54,-77.06,2020-10-20 17:05:15,81.28,76,73,22.24
455,Cheremukhovo,60.35,59.99,2020-10-20 17:05:46,30.13,98,89,4.25
456,Kiunga,-6.12,141.29,2020-10-20 17:05:47,73.71,99,100,2.01
457,Nanortalik,60.14,-45.24,2020-10-20 16:59:44,37.47,86,98,2.64
458,Hambantota,6.12,81.12,2020-10-20 17:00:31,79.92,80,0,17.54
459,Camacupa,-12.02,17.48,2020-10-20 17:05:51,77.68,30,36,3.98
460,Bay Roberts,47.6,-53.26,2020-10-20 17:05:52,61,82,75,11.99
461,Suez,29.97,32.53,2020-10-20 17:05:53,76.95,64,0,12.28
462,Pemangkat,1.17,108.97,2020-10-20 17:02:57,79.83,79,81,3.09
463,Svobodnyy,51.4,128.13,2020-10-20 17:05:56,41.95,81,100,15.01
464,Baykit,61.67,96.37,2020-10-20 16:59:55,22.62,95,89,1.36
465,Malyye Derbety,47.95,44.68,2020-10-20 17:05:58,52.05,60,63,8.72
466,Bandarbeyla,9.49,50.81,2020-10-20 17:06:00,80.02,75,0,5.61
467,Hay River,60.82,-115.8,2020-10-20 17:06:01,19.4,92,90,11.41
468,Neryungri,56.67,124.65,2020-10-20 16:59:51,22.6,96,100,6.67
469,Polyarnyy,69.2,33.45,2020-10-20 17:02:21,32,80,75,4.47
470,Sao Paulo De Olivenca,-3.38,-68.87,2020-10-20 17:06:04,95.86,42,48,4.16
471,Petropavlovsk-Kamchatskiy,53.05,158.65,2020-10-20 16:59:11,26.6,92,9,4.47
472,Namatanai,-3.67,152.43,2020-10-20 17:00:31,79.14,78,81,1.52
473,Saryshagan,-3.67,152.43,2020-10-20 17:00:31,79.14,78,81,1.52
474,Grand Centre,-3.67,152.43,2020-10-20 17:00:31,79.14,78,81,1.52
475,Freetown,8.48,-13.23,2020-10-20 17:06:10,82.4,74,75,6.93
476,Ust-Kulom,61.69,53.69,2020-10-20 17:06:11,29.75,99,98,3.62
477,Iglino,54.83,56.41,2020-10-20 17:06:13,35.6,80,40,8.95
478,Rajshahi,24.37,88.6,2020-10-20 17:06:14,80.51,64,10,3.83
479,Elbistan,38.21,37.2,2020-10-20 17:06:15,58.8,61,82,1.99
480,Meadow Lake,34.8,-106.54,2020-10-20 17:06:16,68,16,40,4.97
481,Brandon,27.94,-82.29,2020-10-20 17:06:17,86,66,75,11.41
482,Te Anau,-45.42,167.72,2020-10-20 17:06:19,33.53,92,16,1.21
483,Sentyabrskiy,-45.42,167.72,2020-10-20 17:06:19,33.53,92,16,1.21
484,Bull Savanna,17.89,-77.59,2020-10-20 17:06:21,82.13,73,78,15.59
485,Likasi,-10.98,26.73,2020-10-20 17:06:22,72.99,41,25,3.31
486,Alta Floresta,-9.88,-56.09,2020-10-20 17:06:24,94.42,37,89,2.57
487,Koumac,-20.57,164.28,2020-10-20 17:06:25,71.22,76,5,3.18
488,Toliary,-20.57,164.28,2020-10-20 17:06:25,71.22,76,5,3.18
489,Hunza,-20.57,164.28,2020-10-20 17:06:25,71.22,76,5,3.18
490,Jalu,29.03,21.55,2020-10-20 17:00:00,77.16,45,0,8.79
491,Brae,60.4,-1.35,2020-10-20 17:03:23,48.2,87,75,27.51
492,Pulandian,39.4,121.97,2020-10-20 17:06:31,62.6,63,100,13.42
493,Camacha,33.08,-16.33,2020-10-20 17:00:13,71.6,56,20,25.28
494,Turochak,52.26,87.12,2020-10-20 17:06:33,37.33,79,72,1.95
495,Paamiut,61.99,-49.67,2020-10-20 17:06:35,38.28,95,100,14.23
496,Kushiro,42.98,144.37,2020-10-20 17:06:36,42.44,84,0,5.03
497,Linjiang,41.81,126.91,2020-10-20 17:06:37,46.18,74,99,2.93
498,Tuatapere,-46.13,167.68,2020-10-20 16:56:56,42.01,88,48,4.94
499,Isangel,-19.55,169.27,2020-10-20 16:59:51,73.69,79,42,10.25
500,Broken Hill,-31.95,141.43,2020-10-20 17:06:41,62.6,36,68,6.31
501,Anloga,5.79,0.9,2020-10-20 17:06:42,84.2,79,20,13.87
502,Viligili,5.79,0.9,2020-10-20 17:06:42,84.2,79,20,13.87
503,Sorland,67.67,12.69,2020-10-20 16:57:02,41,75,75,12.75
504,Satitoa,67.67,12.69,2020-10-20 16:57:02,41,75,75,12.75
505,Carupano,10.67,-63.26,2020-10-20 17:06:46,87.37,65,0,9.95
506,Sisophon,13.59,102.97,2020-10-20 17:06:48,73.42,89,100,6.6
507,Lucea,18.45,-78.17,2020-10-20 17:06:49,88,70,40,11.41
508,Uyuni,-20.46,-66.83,2020-10-20 16:58:20,63.36,26,0,10.67
509,Ponta Delgada,37.73,-25.67,2020-10-20 17:06:52,64.4,72,40,19.46
510,Dingle,11,122.67,2020-10-20 17:00:28,77.11,85,100,9.1
511,Palmer,42.16,-72.33,2020-10-20 16:59:10,66.99,72,75,6.93
512,Les Cayes,18.2,-73.75,2020-10-20 17:06:56,84.54,71,47,10.63
513,Palabuhanratu,18.2,-73.75,2020-10-20 17:06:56,84.54,71,47,10.63
514,Sobolevo,54.43,31.9,2020-10-20 17:02:59,36.9,80,77,7.31
515,Kruisfontein,-34,24.73,2020-10-20 16:57:07,60.01,74,0,1.99
516,Kasongo-Lunda,-6.47,16.82,2020-10-20 17:02:36,79.61,74,18,3.76
517,Chake Chake,-5.25,39.77,2020-10-20 17:07:02,77.41,79,2,7.43
518,Osinki,52.84,49.51,2020-10-20 17:07:03,40.73,65,9,8.88
519,Kendari,-3.94,122.5,2020-10-20 17:07:04,74.43,86,42,1.39
520,Kiruna,67.86,20.23,2020-10-20 17:07:05,19.4,100,25,1.21
521,Burica,67.86,20.23,2020-10-20 17:07:05,19.4,100,25,1.21
522,Nanakuli,21.39,-158.15,2020-10-20 17:07:08,80.6,74,90,12.75
523,Sao Luiz Gonzaga,-28.41,-54.96,2020-10-20 17:07:09,92.97,31,0,7.87
524,Nileshwar,12.25,75.1,2020-10-20 17:07:10,78.8,94,75,6.55
525,Magomeni,-6.8,39.25,2020-10-20 17:07:11,78.8,74,20,8.05
526,Kutum,14.2,24.67,2020-10-20 17:07:12,82.54,14,8,12.73
527,Rafai,4.95,23.92,2020-10-20 17:07:14,72.95,92,79,3.91
528,Gizo,-8.1,156.84,2020-10-20 17:07:15,82.69,74,71,5.79
529,Ipanguacu,-5.5,-36.85,2020-10-20 17:07:16,100.17,23,94,14.72
530,Ust-Nera,64.57,143.2,2020-10-20 17:07:17,6.01,86,93,4.94
531,Svetlyy,54.67,20.13,2020-10-20 17:01:05,48.2,87,100,6.71
532,Salekhard,66.53,66.6,2020-10-20 17:07:19,17.65,97,96,5.64
533,Zhanakorgan,43.91,67.25,2020-10-20 17:07:21,55.85,36,0,7.34
534,Opelousas,30.53,-92.08,2020-10-20 17:07:22,82,65,1,3.36
535,Marau,-28.45,-52.2,2020-10-20 17:07:23,87.73,39,4,5.53
536,Maningrida,-12.07,134.27,2020-10-20 17:07:24,77.45,76,1,1.83
537,Ashford,51.15,0.87,2020-10-20 17:07:25,61,80,100,5.01
538,Ngukurr,51.15,0.87,2020-10-20 17:07:25,61,80,100,5.01
539,Quatre Cocos,-20.21,57.76,2020-10-20 17:07:28,75.99,73,40,12.75
540,Newtownards,54.59,-5.69,2020-10-20 17:04:01,55.99,87,100,20.8
541,Chiang Khong,20.26,100.4,2020-10-20 17:07:33,69.8,100,90,2.24
542,Birur,13.62,75.97,2020-10-20 17:07:34,69.17,91,100,8.28
543,Save,8.04,2.49,2020-10-20 17:07:36,81.45,80,53,4.52
544,Wewak,-3.55,143.63,2020-10-20 17:07:37,78.91,77,100,1.61
545,Damghan,36.17,54.35,2020-10-20 17:07:38,59.97,34,0,4
546,Tadine,-21.55,167.88,2020-10-20 17:07:39,72.07,83,6,12.66
547,Gryfice,53.92,15.2,2020-10-20 17:07:41,48.99,76,100,13.87
548,Sistranda,63.73,8.83,2020-10-20 17:02:27,39.2,69,75,17.22
549,Basco,20.45,121.97,2020-10-20 17:03:35,82.49,79,100,30.02
550,Balezino,57.98,53.01,2020-10-20 17:07:44,34.2,90,90,8.61
551,Saint-Joseph,-21.37,55.62,2020-10-20 17:00:34,73.4,78,35,5.82
552,Nguiu,-21.37,55.62,2020-10-20 17:00:34,73.4,78,35,5.82
553,Zhanatas,-21.37,55.62,2020-10-20 17:00:34,73.4,78,35,5.82
554,Kaeo,-35.1,173.78,2020-10-20 16:59:48,53.01,93,56,1.25
555,Surt,31.21,16.59,2020-10-20 17:07:50,72.36,55,1,10.27
556,Belyy Yar,53.6,91.39,2020-10-20 17:07:51,42.8,60,80,4.47
557,Comodoro Rivadavia,-45.87,-67.5,2020-10-20 17:03:40,53.6,46,0,12.75
558,Chimoio,-19.12,33.48,2020-10-20 17:07:54,79.12,40,0,8.59
559,Lichinga,-13.31,35.24,2020-10-20 17:07:55,71.38,51,63,7.4
560,Misratah,32.38,15.09,2020-10-20 17:07:56,72.25,55,5,8.39
561,Chunskiy,56.08,99.63,2020-10-20 17:07:57,31.68,98,100,6.26
562,Karachi,24.91,67.08,2020-10-20 17:03:30,78.8,44,0,4.7
563,Lima,-12.04,-77.03,2020-10-20 17:06:31,66,88,90,8.05
564,Erenhot,43.65,111.98,2020-10-20 17:02:52,32.22,83,88,24.18
565,Urumqi,43.8,87.6,2020-10-20 16:56:37,50,34,0,2.24
566,Gubkinskiy,64.43,76.5,2020-10-20 17:08:03,28.09,97,100,6.87
567,Tura,25.52,90.22,2020-10-20 17:00:27,73.65,85,4,3.51
568,Banepa,27.63,85.52,2020-10-20 17:08:06,66.2,88,40,5.82
569,Sawtell,-30.38,153.1,2020-10-20 17:08:07,59,93,90,4.61
570,Reitz,-27.8,28.43,2020-10-20 17:08:08,71.46,33,69,10.42
571,Verkhnyaya Toyma,62.23,45,2020-10-20 17:08:09,29.05,97,100,7.45
572,Sarangani,5.4,125.46,2020-10-20 17:08:10,82.72,76,79,9.71
573,Angoche,-16.23,39.91,2020-10-20 17:08:12,78.96,72,0,10.94
574,Samusu,-16.23,39.91,2020-10-20 17:08:12,78.96,72,0,10.94
575,Jubayl,-16.23,39.91,2020-10-20 17:08:12,78.96,72,0,10.94
576,Leshukonskoye,64.9,45.76,2020-10-20 17:01:03,25.41,98,88,6.13
577,Bonavista,48.65,-53.11,2020-10-20 17:03:17,55.24,81,99,14.27
578,Touros,-5.2,-35.46,2020-10-20 16:59:56,86,55,40,16.11
